City_ID,City,Lat,Lng,Max Temp,Humidity,Cloudiness,Wind Speed,Country,Date
0,pevek,69.7008,170.3133,-10.91,76,99,5.6,RU,1680275069
1,shunyi,40.125,116.6453,16.97,34,0,4.0,CN,1680275069
2,santa maria,-29.6842,-53.8069,28.61,54,0,4.63,BR,1680275069
3,kyzyl-suu,42.3414,78.0056,6.39,66,39,1.89,KG,1680275069
4,norman wells,65.282,-126.8329,-13.98,66,75,7.2,CA,1680275069
5,sitka,57.0531,-135.33,5.94,61,100,6.17,US,1680275069
6,celestun,20.8667,-90.4,27.49,59,63,5.82,MX,1680275069
7,warangal,18.0,79.5833,27.45,48,10,1.56,IN,1680275070
8,faanui,-16.4833,-151.75,27.81,72,34,3.57,PF,1680275070
9,bambous virieux,-20.3428,57.7575,28.14,74,40,5.14,MU,1680275071
10,tiznit,29.5833,-9.5,30.55,11,0,6.01,MA,1680275071
11,ushuaia,-54.8,-68.3,8.79,71,20,0.51,AR,1680275071
12,bam,29.106,58.357,24.91,20,71,5.78,IR,1680275072
13,deputatskiy,69.3,139.9,-24.03,96,100,2.46,RU,1680275072
14,rikitea,-23.1203,-134.9692,25.78,77,80,2.84,PF,1680275072
15,hermanus,-34.4187,19.2345,22.11,67,8,3.66,ZA,1680275072
16,tiksi,71.6872,128.8694,-30.8,100,42,3.45,RU,1680275073
17,tawau,4.2498,117.8871,25.07,88,69,1.61,MY,1680275073
18,hondo,32.45,130.2,15.44,68,86,1.4,JP,1680275073
19,aklavik,68.2191,-135.0107,-27.7,99,45,1.65,CA,1680275074
20,lagoa,39.05,-27.9833,16.39,88,100,10.48,PT,1680275074
21,maryborough,-25.5333,152.7,17.58,78,93,1.48,AU,1680275074
22,cape town,-33.9258,18.4232,22.16,69,0,11.83,ZA,1680274800
23,provideniya,64.3833,-173.3,-16.56,88,15,3.1,RU,1680275074
24,vaini,-21.2,-175.2,24.09,94,20,2.57,TO,1680275074
25,chkalovskoye,44.8392,133.0436,5.16,42,0,2.08,RU,1680275074
26,saint-philippe,-21.3585,55.7679,27.77,84,48,5.08,RE,1680275075
27,ribeira grande,38.5167,-28.7,18.22,88,40,7.72,PT,1680275075
28,yurimaguas,-5.9,-76.0833,26.09,83,100,2.57,PE,1680275075
29,nikolskoye,59.7035,30.7861,1.94,99,99,1.63,RU,1680275075
30,conde,-7.2597,-34.9075,29.7,58,20,6.17,BR,1680275075
31,cabo san lucas,22.8909,-109.9124,23.17,41,0,4.12,MX,1680275076
32,salalah,17.0151,54.0924,28.05,65,0,3.6,OM,1680275076
33,mercedes,-34.6515,-59.4307,20.53,23,16,8.58,AR,1680275076
34,ancud,-41.8697,-73.8203,11.85,57,100,3.16,CL,1680275076
35,bluff,-46.6,168.3333,10.32,91,76,2.73,NZ,1680275076
36,upington,-28.4478,21.2561,31.21,13,0,1.54,ZA,1680275076
37,east london,-33.0153,27.9116,22.52,60,0,2.57,ZA,1680275077
38,oranjemund,-28.55,16.4333,20.03,65,100,8.04,NA,1680275077
39,codrington,-38.2667,141.9667,12.3,65,100,4.54,AU,1680275077
40,sao filipe,14.8961,-24.4956,25.01,68,68,4.35,CV,1680275077
41,atuona,-9.8,-139.0333,26.86,78,67,7.87,PF,1680275077
42,cherskiy,68.75,161.3,-4.68,97,100,3.03,RU,1680275077
43,klaksvik,62.2266,-6.589,6.51,91,100,11.68,FO,1680275077
44,manyana,-23.4,21.7167,29.16,26,81,1.77,BW,1680275077
45,port elizabeth,-33.918,25.5701,21.17,65,0,5.14,ZA,1680274910
46,barrow,71.2906,-156.7887,-14.99,85,100,1.54,US,1680275077
47,mataura,-46.1927,168.8643,7.73,99,90,1.38,NZ,1680275077
48,severomuysk,56.1481,113.4267,-15.19,96,100,3.93,RU,1680274963
49,palm beach,26.6503,-80.4498,26.99,64,8,6.57,US,1680274793
50,jieshi,22.8134,115.8257,20.52,86,100,5.19,CN,1680275078
51,punta arenas,-53.15,-70.9167,10.01,63,0,13.89,CL,1680275058
52,nhulunbuy,-12.2333,136.7667,25.34,94,11,0.51,AU,1680275078
53,hobart,-42.8794,147.3294,8.92,69,35,4.63,AU,1680274837
54,srinagar,34.0833,74.8167,11.39,78,100,1.25,IN,1680275078
55,ponta do sol,32.6667,-17.1,24.51,48,0,3.06,PT,1680275078
56,isangel,-19.55,169.2667,24.86,79,100,1.46,VU,1680275078
57,sept-iles,50.2001,-66.3821,0.59,95,100,2.57,CA,1680275059
58,awka,6.2101,7.0741,32.83,46,96,2.17,NG,1680275079
59,kavaratti,10.5669,72.642,27.44,71,3,5.12,IN,1680275079
60,albany,42.6001,-73.9662,7.25,43,99,1.34,US,1680275000
61,lasa,46.6166,10.7002,8.53,99,100,2.0,IT,1680275079
62,hilo,19.7297,-155.09,21.25,94,100,3.09,US,1680274833
63,sakakah,29.9697,40.2064,18.76,19,0,7.47,SA,1680275079
64,khatanga,71.9667,102.5,-21.46,94,92,6.26,RU,1680275079
65,mar del plata,-38.0023,-57.5575,15.53,67,40,7.72,AR,1680275080
66,esperance,-33.8667,121.9,18.18,73,100,7.27,AU,1680275080
67,puerto ayora,-0.7393,-90.3518,28.98,95,38,1.34,EC,1680275080
68,jiaonan,35.8786,119.9753,9.51,53,73,1.99,CN,1680275080
69,jamestown,42.097,-79.2353,7.77,61,100,5.14,US,1680275017
70,chuy,-33.6971,-53.4616,19.88,92,99,5.66,UY,1680275081
71,lebu,-37.6167,-73.65,15.6,51,9,3.32,CL,1680275081
72,bethel,41.3712,-73.414,8.36,50,40,3.6,US,1680275020
73,yulara,-25.2406,130.9889,17.15,66,100,7.71,AU,1680275081
74,najran,17.4924,44.1277,33.36,32,46,7.43,SA,1680275081
75,presidente bernardes,-22.0061,-51.5531,30.21,62,32,1.32,BR,1680275082
76,berlevag,70.8578,29.0864,-5.0,73,0,4.12,NO,1680275082
77,kloulklubed,7.0419,134.2556,24.28,71,1,1.17,PW,1680275082
78,tasiilaq,65.6145,-37.6368,0.38,69,100,1.43,GL,1680274990
79,muros,42.7762,-9.0603,16.72,74,100,6.13,ES,1680275082
80,vilhena,-12.7406,-60.1458,28.12,74,20,4.12,BR,1680275082
81,bredasdorp,-34.5322,20.0403,21.36,52,6,3.59,ZA,1680275083
82,mahebourg,-20.4081,57.7,28.16,74,40,5.14,MU,1680275083
83,arraial do cabo,-22.9661,-42.0278,28.98,65,0,4.12,BR,1680275081
84,qaanaaq,77.484,-69.3632,-23.1,72,25,1.73,GL,1680275084
85,altayskoye,51.9533,85.3325,-7.75,92,100,2.34,RU,1680275084
86,elliot lake,46.3834,-82.6331,-1.14,96,100,4.41,CA,1680274903
87,busselton,-33.65,115.3333,17.63,67,100,6.66,AU,1680275084
88,butaritari,3.0707,172.7902,27.0,81,100,3.44,KI,1680275084
89,kruisfontein,-34.0033,24.7314,19.94,60,69,4.2,ZA,1680275084
90,laramie,41.3114,-105.5911,-0.02,52,40,10.8,US,1680275084
91,kavieng,-2.5744,150.7967,27.12,75,94,1.16,PG,1680275084
92,upernavik,72.7868,-56.1549,-24.97,83,3,3.3,GL,1680275084
93,port alfred,-33.5906,26.891,20.1,76,100,1.34,ZA,1680274844
94,saldanha,-33.0117,17.9442,18.24,74,32,8.39,ZA,1680275084
95,nawada,24.8833,85.5333,26.89,37,81,0.68,IN,1680275084
96,nanortalik,60.1432,-45.2371,-2.07,77,45,3.1,GL,1680275084
97,marovoay,-16.1,46.6333,27.35,80,99,1.97,MG,1680275084
98,saskylakh,71.9167,114.0833,-20.51,95,95,5.94,RU,1680275084
99,carnarvon,-24.8667,113.6333,23.71,70,81,3.83,AU,1680275084
100,dikson,73.5069,80.5464,-13.64,94,100,11.52,RU,1680275084
101,kourou,5.1552,-52.6478,29.03,65,88,4.44,GF,1680275084
102,nakamura,32.9833,132.9333,11.37,87,77,1.38,JP,1680275084
103,kapaa,22.0752,-159.319,22.28,92,100,1.54,US,1680275085
104,lamar,33.6668,-95.5836,22.58,94,100,8.23,US,1680275085
105,belyy yar,53.6039,91.3903,-7.3,67,40,7.0,RU,1680275085
106,new norfolk,-42.7826,147.0587,8.72,66,24,1.55,AU,1680275085
107,inhambane,-23.865,35.3833,24.89,73,83,3.23,MZ,1680275085
108,souillac,-20.5167,57.5167,28.21,74,40,5.14,MU,1680275085
109,la roda,39.2167,-2.15,23.85,32,88,11.1,ES,1680275086
110,lucapa,-8.4192,20.7447,22.75,80,86,1.81,AO,1680275086
111,hasaki,35.7333,140.8333,11.79,73,2,5.24,JP,1680275086
112,ulaanbaatar,47.9077,106.8832,-0.93,64,0,5.0,MN,1680275086
113,belmonte,-15.8631,-38.8828,28.04,68,28,2.9,BR,1680275086
114,lensk,60.7253,114.9278,-9.91,93,100,2.61,RU,1680275086
115,zhigalovo,54.8097,105.1578,-9.55,83,71,3.61,RU,1680275086
116,ambilobe,-13.2,49.05,24.94,90,82,1.41,MG,1680275087
117,bonthe,7.5264,-12.505,30.38,59,43,5.47,SL,1680275087
118,panzhihua,26.5851,101.7128,18.06,39,1,0.88,CN,1680275087
119,te anau,-45.4167,167.7167,8.56,92,100,0.83,NZ,1680275088
120,luderitz,-26.6481,15.1594,20.86,62,99,4.01,NA,1680275088
121,lazaro cardenas,17.9583,-102.2,26.89,53,100,1.37,MX,1680275088
122,north bend,43.4065,-124.2243,7.26,94,100,3.09,US,1680274815
123,pingliang,35.5392,106.6861,11.67,61,0,2.62,CN,1680275088
124,westport,41.1415,-73.3579,10.05,55,75,2.57,US,1680275088
125,la tuque,47.4334,-72.7824,-3.86,54,85,1.54,CA,1680274816
126,guerrero negro,27.9769,-114.0611,13.86,61,15,5.28,MX,1680275088
127,fare,-16.7,-151.0167,27.67,70,45,2.98,PF,1680275088
128,mahajanga,-15.7167,46.3167,32.01,66,20,3.09,MG,1680275088
129,castro,-24.7911,-50.0119,24.35,62,6,3.3,BR,1680274884
130,okhotsk,59.3833,143.3,-4.35,93,100,1.26,RU,1680275089
131,odienne,9.51,-7.5692,37.31,17,62,3.58,CI,1680274933
132,kirakira,-10.4544,161.9205,25.83,84,82,1.55,SB,1680275089
133,micheweni,-4.9667,39.8333,28.92,72,34,4.44,TZ,1680275089
134,narsaq,60.9167,-46.05,1.12,51,11,0.82,GL,1680275089
135,tessalit,20.1986,1.0114,34.45,4,0,7.25,ML,1680275089
136,avarua,-21.2078,-159.775,25.03,100,99,0.51,CK,1680275089
137,sorong,-0.8833,131.25,26.26,84,100,2.41,ID,1680275089
138,rajakhera,26.8961,78.1714,19.53,76,71,8.12,IN,1680275089
139,angoche,-16.2325,39.9086,26.08,77,94,4.93,MZ,1680275089
140,liliani,32.2065,72.9537,16.7,92,100,5.15,PK,1680275089
141,airai,-8.9266,125.4092,15.49,94,99,0.84,TL,1680275089
142,libertador general san martin,-23.8064,-64.7876,31.82,55,5,1.42,AR,1680275089
143,clyde river,70.4692,-68.5914,-17.87,78,100,6.69,CA,1680275090
144,cabo rojo,18.0866,-67.1457,31.51,54,0,1.79,PR,1680275090
145,tezpur,26.6333,92.8,24.47,53,99,1.95,IN,1680275001
146,georgetown,5.4112,100.3354,29.97,78,20,2.24,MY,1680274978
147,acarau,-2.8856,-40.12,28.39,73,31,4.1,BR,1680275090
148,shingu,33.7333,135.9833,10.54,89,100,1.3,JP,1680274807
149,port lincoln,-34.7333,135.8667,15.34,59,94,3.99,AU,1680274817
150,dire,12.2833,-10.9667,41.35,5,11,3.95,ML,1680275090
151,half moon bay,37.4636,-122.4286,9.9,89,100,2.57,US,1680275090
152,luanda,-8.8368,13.2343,31.0,58,40,7.72,AO,1680275090
153,leeuwarden,53.2014,5.8086,12.84,83,75,5.66,NL,1680275090
154,port hardy,50.6996,-127.4199,6.0,93,100,3.09,CA,1680274816
155,brescia,45.6333,10.3,9.81,51,96,0.59,IT,1680275091
156,bonavista,48.6499,-53.1147,-0.8,82,21,3.27,CA,1680275091
157,cidreira,-30.1811,-50.2056,27.42,61,0,1.38,BR,1680275091
158,tonj,7.2737,28.6822,38.11,7,73,2.68,SS,1680275091
159,dakoro,14.5106,6.765,36.02,5,99,4.84,NE,1680275091
160,anaconda,46.1285,-112.9423,-6.45,90,73,2.17,US,1680275091
161,lavrentiya,65.5833,-171.0,-20.45,95,4,1.65,RU,1680275091
162,alakurtti,66.9672,30.3491,-4.03,86,97,2.86,RU,1680275091
163,namibe,-15.1961,12.1522,25.08,76,100,4.62,AO,1680275091
164,alofi,-19.0595,-169.9187,24.94,94,36,1.54,NU,1680275091
165,madimba,-10.4,40.3333,27.62,89,75,5.14,TZ,1680275091
166,vostok,46.4856,135.8833,-4.91,88,5,1.49,RU,1680275091
167,qasigiannguit,68.8193,-51.1922,-13.86,76,1,1.3,GL,1680275092
168,maniitsoq,65.4167,-52.9,-7.23,44,6,0.73,GL,1680275092
169,the valley,18.217,-63.0578,27.92,65,20,7.2,AI,1680275019
170,ulladulla,-35.35,150.4667,9.87,75,27,0.16,AU,1680275092
171,matagami,49.7502,-77.6328,-1.94,59,40,2.06,CA,1680275092
172,fort nelson,58.8053,-122.7002,-4.23,96,100,3.09,CA,1680275092
173,ahuimanu,21.4447,-157.8378,22.84,92,20,0.45,US,1680275092
174,kaitangata,-46.2817,169.8464,9.11,95,39,1.77,NZ,1680275092
175,lake havasu city,34.4839,-114.3224,13.59,55,0,1.34,US,1680275092
176,mangrol,21.1167,70.1167,25.17,73,0,4.74,IN,1680275092
177,weiden,49.6775,12.1567,11.02,80,0,6.69,DE,1680275092
178,chokurdakh,70.6333,147.9167,-20.6,95,100,4.86,RU,1680275092
179,abeokuta,7.15,3.35,30.46,61,100,2.52,NG,1680275093
180,fenyi,27.8112,114.6681,16.89,81,74,0.71,CN,1680275093
181,broome,42.2506,-75.833,6.87,55,100,4.12,US,1680275093
182,vanimo,-2.6741,141.3028,25.81,86,100,1.05,PG,1680275093
183,thompson,55.7435,-97.8558,-15.91,66,75,1.54,CA,1680274808
184,san pedro,14.35,121.0167,28.57,73,20,3.09,PH,1680274794
185,torbay,47.6666,-52.7314,1.82,84,75,4.12,CA,1680275093
186,dali,25.7,100.1833,11.4,62,0,2.83,CN,1680275093
187,meulaboh,4.1363,96.1285,25.92,85,100,1.07,ID,1680275093
188,devonport,-41.1667,146.35,8.34,85,4,3.17,AU,1680275093
189,kamenka,51.3223,42.7678,2.87,86,100,7.69,RU,1680275094
190,bathsheba,13.2167,-59.5167,29.34,61,40,10.29,BB,1680274868
191,santa isabel,-23.3156,-46.2214,29.61,66,12,2.55,BR,1680275027
192,dingle,10.9995,122.6711,25.18,76,74,2.81,PH,1680275094
193,zlitan,32.4674,14.5687,21.44,43,4,5.41,LY,1680275094
194,shubarkuduk,49.1447,56.4872,16.98,57,99,4.38,KZ,1680275094
195,severnyy,50.677,36.5532,2.02,87,100,2.0,RU,1680275094
196,boone,39.0334,-92.3335,21.34,89,100,8.42,US,1680274949
197,grand gaube,-20.0064,57.6608,28.22,74,2,2.24,MU,1680275094
198,quelimane,-17.8786,36.8883,26.97,65,75,4.63,MZ,1680275094
199,mount pleasant,32.7941,-79.8626,24.44,69,75,3.6,US,1680275095
200,kashan,33.9831,51.4364,23.77,20,75,7.2,IR,1680275095
201,qaqortoq,60.7167,-46.0333,-3.53,65,17,0.78,GL,1680275095
202,vardo,70.3705,31.1107,-9.01,79,0,5.14,NO,1680275095
203,margate,51.3813,1.3862,12.17,86,100,4.02,GB,1680275095
204,magole,-6.3667,37.3667,27.54,64,65,2.08,TZ,1680275096
205,iwanai,42.9744,140.5089,4.18,61,1,4.67,JP,1680274847
206,colares,38.7992,-9.4469,20.55,73,40,5.81,PT,1680275096
207,jiangyou,31.7667,104.7167,16.9,72,98,0.71,CN,1680275096
208,florianopolis,-27.6146,-48.5012,27.57,70,40,3.09,BR,1680275096
209,eyl,7.9803,49.8164,27.76,67,20,4.32,SO,1680275096
210,vysokogornyy,50.1167,139.15,-5.71,97,25,0.6,RU,1680275096
211,lokoja,7.8024,6.743,37.94,24,100,2.19,NG,1680275096
212,nacogdoches,31.6002,-94.6335,23.8,88,100,8.23,US,1680275097
213,nelson bay,-32.7167,152.15,19.44,88,0,2.68,AU,1680275097
214,yichang,30.7144,111.2847,18.25,64,100,0.78,CN,1680275097
215,hovd,48.0056,91.6419,-9.03,40,34,4.41,MN,1680275097
216,redcliffe,-27.2307,153.0973,21.05,68,100,2.57,AU,1680274955
217,vero beach,27.6386,-80.3973,27.25,57,0,8.23,US,1680275097
218,richards bay,-28.783,32.0377,22.99,76,80,3.75,ZA,1680275098
219,tarpon springs,28.1461,-82.7568,27.1,64,54,5.81,US,1680275098
220,sibolga,1.7427,98.7792,25.63,84,100,1.75,ID,1680275098
221,leningradskiy,69.3833,178.4167,-19.77,86,29,2.64,RU,1680275098
222,polessk,54.862,21.1028,9.03,89,93,3.99,RU,1680275098
223,aykhal,66.0,111.5,-23.57,100,92,5.07,RU,1680275098
224,puerto escondido,15.85,-97.0667,32.46,74,0,2.06,MX,1680275098
225,pacific grove,36.6177,-121.9166,7.59,89,1,2.13,US,1680275099
226,havre-saint-pierre,50.2334,-63.5986,1.2,69,40,1.54,CA,1680275099
227,pavlovsk,50.4578,40.1081,2.22,96,100,6.9,RU,1680275099
228,nuevo ideal,24.8875,-105.0728,16.19,17,100,2.03,MX,1680275099
229,chara,56.9064,118.2631,-2.98,77,100,4.54,RU,1680275100
230,itarema,-2.9248,-39.9167,28.57,72,37,4.08,BR,1680275100
231,qeshm,26.9581,56.2719,26.93,62,62,5.74,IR,1680275100
232,harer,9.3094,42.1258,18.8,77,62,1.96,ET,1680275100
233,tuktoyaktuk,69.4541,-133.0374,-26.0,76,0,7.2,CA,1680275100
234,gold coast,-28.0,153.4333,21.11,78,100,0.51,AU,1680275031
235,george,-33.963,22.4617,18.75,68,20,3.09,ZA,1680275100
236,zabid,14.1951,43.3152,29.39,62,99,5.77,YE,1680275100
237,karratha,-20.7377,116.8463,28.24,70,97,3.19,AU,1680275101
238,pisco,-13.7,-76.2167,26.03,73,0,3.6,PE,1680275101
239,lorengau,-2.0226,147.2712,26.99,81,95,2.93,PG,1680275101
240,malatya,38.5,38.0,4.03,33,20,9.26,TR,1680275101
241,bengkulu,-3.8004,102.2655,24.59,88,97,1.76,ID,1680275101
242,maroantsetra,-15.4333,49.7333,26.22,81,99,3.52,MG,1680275101
243,iisalmi,63.5592,27.1907,-0.27,82,12,3.7,FI,1680275102
244,beringovskiy,63.05,179.3167,-14.66,92,8,3.81,RU,1680275102
245,taitung,22.7583,121.1444,20.15,100,100,1.54,TW,1680274914
246,nome,64.5011,-165.4064,-5.96,79,100,6.69,US,1680275102
247,matara,5.9485,80.5353,26.95,82,89,1.29,LK,1680275103
248,krasnaya gorka,55.1962,56.6673,2.42,70,100,4.85,RU,1680275103
249,alta floresta,-9.8756,-56.0861,32.9,62,40,2.06,BR,1680275103
250,kropotkin,45.4375,40.5756,7.04,65,61,6.46,RU,1680275104
251,puerto del rosario,28.5004,-13.8627,24.86,50,0,6.17,ES,1680275105
252,glens falls,43.3095,-73.644,5.93,52,0,3.09,US,1680275105
253,guiyang,26.5833,106.7167,13.27,94,100,5.0,CN,1680275106
254,piacabucu,-10.4056,-36.4344,29.37,57,100,3.56,BR,1680275106
255,imbituba,-28.24,-48.6703,28.81,61,0,2.19,BR,1680275106
256,kodiak,57.79,-152.4072,-0.27,55,0,4.12,US,1680275106
257,yellowknife,62.456,-114.3525,-24.69,77,20,4.63,CA,1680274841
258,bereda,43.2686,-7.5406,15.64,58,85,4.19,ES,1680275107
259,pangody,65.85,74.4859,-7.1,89,100,10.71,RU,1680275107
260,ostrovnoy,68.0531,39.5131,-4.62,88,91,10.76,RU,1680275108
261,sao joao da barra,-21.6403,-41.0511,35.05,55,50,3.01,BR,1680275108
262,emba,48.8264,58.1442,17.0,50,30,8.04,KZ,1680275108
263,tarakan,3.3,117.6333,25.72,89,20,1.54,ID,1680275109
264,olafsvik,64.8945,-23.7142,4.71,97,99,3.7,IS,1680275109
265,taoudenni,22.6783,-3.9836,36.77,5,0,7.05,ML,1680275109
266,prince rupert,54.3161,-130.3201,3.83,93,100,13.89,CA,1680275110
267,longyearbyen,78.2186,15.6401,-9.09,73,75,5.66,SJ,1680275110
268,port augusta,-32.5,137.7667,17.01,70,0,5.66,AU,1680275110
269,urubicha,-15.3833,-62.95,30.1,56,98,1.24,BO,1680275111
270,vila velha,-20.3297,-40.2925,32.97,49,0,4.12,BR,1680274855
271,velke mezirici,49.3552,16.0122,14.67,98,100,6.96,CZ,1680275025
272,melnikovo,56.5558,84.085,-9.8,88,98,1.81,RU,1680275111
273,nanzhang,31.7765,111.8386,17.01,66,100,2.47,CN,1680275111
274,northam,51.0333,-4.2167,10.14,96,100,12.7,GB,1680275111
275,mount gambier,-37.8333,140.7667,11.18,71,100,2.62,AU,1680275111
276,ballina,-28.8667,153.5667,15.99,67,100,1.18,AU,1680275112
277,kimbe,-5.5502,150.1429,24.32,92,93,1.39,PG,1680275112
278,burg,51.8333,14.15,11.31,87,100,4.27,DE,1680275112
279,fairbanks,64.8378,-147.7164,-10.81,79,100,0.0,US,1680274844
280,cedar city,37.6775,-113.0619,1.89,66,0,2.54,US,1680274943
281,san patricio,28.017,-97.5169,26.04,66,97,10.24,US,1680275112
282,ewa beach,21.3156,-158.0072,22.97,89,0,2.06,US,1680275096
283,great yarmouth,52.6083,1.7305,13.14,94,100,0.62,GB,1680274969
284,banyo,6.75,11.8167,32.62,21,56,2.83,CM,1680275113
285,kuytun,54.3419,101.5036,-11.07,84,22,3.01,RU,1680275113
286,umea,63.8284,20.2597,3.96,41,0,3.6,SE,1680275113
287,piqua,40.1448,-84.2424,11.4,94,100,8.64,US,1680275113
288,yining,29.0361,114.5636,15.44,83,98,0.92,CN,1680275114
289,togur,58.3631,82.8265,-11.49,91,100,1.85,RU,1680275114
290,harper,4.375,-7.7169,29.17,71,97,4.67,LR,1680275114
291,san carlos,9.6612,-68.5827,33.35,38,93,2.38,VE,1680275115
292,ahipara,-35.1667,173.1667,16.67,87,100,3.4,NZ,1680275115
293,solwezi,-12.1688,26.3894,17.46,98,100,1.87,ZM,1680274931
294,kununurra,-15.7667,128.7333,25.99,78,100,0.0,AU,1680275115
295,hualmay,-11.0964,-77.6139,26.24,75,47,4.57,PE,1680275115
296,kimry,56.8667,37.35,4.38,81,53,1.79,RU,1680275115
297,paragominas,-2.9667,-47.4833,27.18,85,93,1.18,BR,1680274943
298,tuatapere,-46.1333,167.6833,8.75,92,97,2.35,NZ,1680275115
299,tremedal,-14.9758,-41.4108,33.48,18,8,2.56,BR,1680274991
300,pemangkat,1.1667,108.9667,24.74,90,100,2.75,ID,1680275116
301,ngunguru,-35.6167,174.5,18.06,81,100,4.91,NZ,1680275116
302,bongor,10.2806,15.3722,38.72,9,100,0.67,TD,1680275117
303,farap,39.1704,63.6116,26.0,27,0,4.12,TM,1680275117
304,honningsvag,70.9821,25.9704,-1.14,100,100,15.43,NO,1680274989
305,douchy-les-mines,50.3008,3.3927,11.82,95,100,2.68,FR,1680275117
306,vila franca do campo,37.7167,-25.4333,17.23,80,76,5.23,PT,1680275118
307,tiruvannamalai,12.2167,79.0667,27.9,67,1,3.53,IN,1680275038
308,leshukonskoye,64.8989,45.7622,-4.49,92,87,1.56,RU,1680275118
309,ilulissat,69.2167,-51.1,-13.99,43,0,1.54,GL,1680275118
310,kachug,53.9606,105.8817,-8.6,76,88,4.06,RU,1680275118
311,gat,31.61,34.7642,15.38,27,31,5.88,IL,1680275119
312,matay,28.419,30.7792,20.87,23,0,6.76,EG,1680275119
313,praia,14.9215,-23.5087,29.3,48,0,6.69,CV,1680275120
314,hofn,64.2539,-15.2082,8.01,93,100,7.2,IS,1680275121
315,victoria,22.2855,114.1577,21.03,92,100,4.02,HK,1680274828
316,odweyne,9.4092,45.064,29.13,37,83,5.36,SO,1680275121
317,seoul,37.5683,126.9778,11.78,58,0,1.54,KR,1680275012
318,cap malheureux,-19.9842,57.6142,27.48,74,2,2.24,MU,1680275122
319,xuzhou,34.1805,117.1571,12.07,69,100,2.76,CN,1680275122
320,kirovskiy,45.0917,133.5136,4.01,53,0,2.03,RU,1680275122
321,nantucket,41.2835,-70.0995,8.08,39,0,4.63,US,1680275122
322,aksha,50.2814,113.2867,-0.38,58,39,7.36,RU,1680275123
323,ust-kut,56.7938,105.7672,-14.8,97,93,1.57,RU,1680275123
324,umm lajj,25.0213,37.2685,21.73,55,22,7.31,SA,1680275123
325,iqaluit,63.7506,-68.5145,-12.15,85,100,2.06,CA,1680274835
326,oranjestad,12.524,-70.027,28.97,61,20,12.86,AW,1680274896
327,ambon,-3.6954,128.1814,26.08,89,20,3.6,ID,1680275123
328,kahului,20.8947,-156.47,23.25,78,20,0.0,US,1680275123
329,mitu,1.1983,-70.1733,23.65,92,100,1.7,CO,1680275123
330,nogliki,51.8333,143.1667,-0.86,98,100,1.49,RU,1680275123
331,laguna,38.421,-121.4238,9.31,85,40,2.57,US,1680275124
332,padang,-0.9492,100.3543,26.03,85,100,1.42,ID,1680275124
333,tomatlan,19.9333,-105.25,26.64,23,81,0.88,MX,1680275124
334,tiarei,-17.5333,-149.3333,25.01,75,87,2.31,PF,1680275124
335,matasari,44.85,23.0833,16.68,50,100,5.26,RO,1680275124
336,arlit,18.7369,7.3853,35.09,6,0,3.06,NE,1680275125
337,chapais,49.7834,-74.8492,-4.12,83,100,4.06,CA,1680275125
338,puerto baquerizo moreno,-0.9,-89.6,28.55,79,40,5.14,EC,1680275125
339,nishihara,26.1842,127.7558,21.6,78,100,2.57,JP,1680275126
340,yerofey pavlovich,53.9667,121.9667,-0.63,96,74,2.72,RU,1680275126
341,naze,28.3667,129.4833,18.51,89,72,4.02,JP,1680275126
342,sangar,63.9242,127.4739,-19.73,96,100,2.35,RU,1680275126
343,ponta delgada,37.7333,-25.6667,17.4,88,75,3.6,PT,1680275126
344,black river,18.0264,-77.8487,29.46,54,20,2.37,JM,1680275126
345,mecca,21.4267,39.8261,25.88,31,44,7.34,SA,1680275126
346,hithadhoo,-0.6,73.0833,28.46,72,17,3.06,MV,1680275127
347,santo amaro,-12.5467,-38.7119,30.1,57,39,3.34,BR,1680275127
348,cayenne,4.9333,-52.3333,29.02,70,75,6.17,GF,1680275082
349,acurenam,1.0322,10.6488,27.52,62,48,1.62,GQ,1680275127
350,sadri,25.1833,73.4333,23.67,45,70,3.35,IN,1680275127
351,beloha,-25.1667,45.05,23.94,79,68,5.52,MG,1680275127
352,hamilton,39.1834,-84.5333,12.21,90,100,4.63,US,1680275041
353,isabela,6.7085,121.9711,26.22,85,100,1.09,PH,1680275127
354,abha,18.2164,42.5053,19.9,68,40,5.66,SA,1680274876
355,constitucion,-35.3333,-72.4167,20.46,38,0,2.68,CL,1680275128
356,parksville,49.3163,-124.3195,6.8,75,100,7.72,CA,1680275128
357,rabo de peixe,37.8,-25.5833,16.73,88,75,3.6,PT,1680275128
358,meadow lake,34.8014,-106.5436,5.93,38,1,11.46,US,1680275128
359,tilichiki,60.4667,166.1,-10.78,98,98,0.87,RU,1680275128
360,mnogovershinnyy,53.9353,139.9242,-7.1,91,20,1.64,RU,1680275128
361,nioro,13.35,-15.75,40.73,15,25,3.22,GM,1680275129
362,balabac,7.9868,117.0645,26.55,84,100,3.74,PH,1680275129
363,ojinaga,29.5667,-104.4167,21.53,19,0,5.66,MX,1680275129
364,cabra,37.4725,-4.4421,21.68,47,100,3.53,ES,1680275129
365,shakhty,47.7091,40.2144,6.79,62,8,6.65,RU,1680274898
366,coihaique,-45.5752,-72.0662,5.97,75,75,1.54,CL,1680275129
367,port hedland,-20.3167,118.5667,27.03,89,8,2.06,AU,1680274958
368,hami,42.8,93.45,14.97,24,86,5.87,CN,1680275130
369,shache,38.4167,77.2406,19.26,21,95,1.5,CN,1680275130
370,kenai,60.5544,-151.2583,-2.7,95,100,1.54,US,1680275055
371,le moule,16.3332,-61.3473,29.02,66,1,7.53,GP,1680275130
372,north platte,41.1239,-100.7654,3.4,82,32,5.81,US,1680274880
373,genhe,50.7833,121.5167,-1.25,91,0,1.58,CN,1680275114
374,catamarca,-28.4696,-65.7852,24.32,60,91,0.89,AR,1680275131
375,kutulik,53.3508,102.7839,-9.87,81,68,4.74,RU,1680275131
376,maragogi,-9.0122,-35.2225,28.54,63,20,3.72,BR,1680275003
377,mouila,-1.8685,11.0559,30.95,70,75,0.36,GA,1680275131
378,camocim,-2.9022,-40.8411,28.77,72,44,3.71,BR,1680275131
379,victor harbor,-35.5667,138.6167,12.04,74,66,5.38,AU,1680275131
380,halifax,44.6453,-63.5724,0.68,72,75,11.83,CA,1680275021
381,flinders,-34.5833,150.8552,15.59,73,68,0.89,AU,1680275131
382,mangai,-4.05,19.5333,24.88,71,98,0.63,CD,1680275132
383,husavik,66.0449,-17.3389,3.0,99,94,4.36,IS,1680275132
384,fallon,39.4735,-118.7774,2.73,66,40,3.6,US,1680275111
385,sucua,-2.4667,-78.1667,20.41,100,100,1.03,EC,1680275132
386,ninotsminda,41.2646,43.5916,-4.37,90,100,3.82,GE,1680275132
387,roald,62.5833,6.1333,9.51,45,0,10.29,NO,1680275132
388,santa ana,33.7456,-117.8678,11.31,81,20,1.54,US,1680275000
389,masuguru,-11.3667,38.4167,25.89,92,99,1.28,TZ,1680275132
390,lapua,62.9693,23.0088,3.5,76,2,2.58,FI,1680275133
391,kroonstad,-27.6504,27.2349,15.65,79,89,3.61,ZA,1680275133
392,san carlos de bariloche,-41.1456,-71.3082,8.86,34,0,4.12,AR,1680274854
393,sioux lookout,50.1001,-91.917,-8.96,53,0,2.57,CA,1680275133
394,saint george,37.1041,-113.5841,4.41,79,0,0.45,US,1680275133
395,anloga,5.7947,0.8973,28.73,73,100,6.0,GH,1680275133
396,nichlaul,27.3167,83.7333,22.76,51,77,2.28,IN,1680275134
397,taybad,34.74,60.7756,22.57,25,1,3.38,IR,1680275134
398,sabha,27.0377,14.4283,25.23,8,0,2.5,LY,1680275134
399,alenquer,-1.9417,-54.7383,27.73,76,87,0.94,BR,1680275134
400,gorey,52.6747,-6.2925,11.43,92,100,7.19,IE,1680275134
401,maningrida,-12.0667,134.2667,27.02,81,99,4.36,AU,1680275134
402,itoman,26.1247,127.6694,22.01,78,100,2.57,JP,1680275134
403,guanica,17.9716,-66.908,31.65,55,0,6.76,PR,1680275135
404,comodoro rivadavia,-45.8667,-67.5,13.92,38,0,5.14,AR,1680275135
405,sorland,67.667,12.6934,2.92,55,76,11.53,NO,1680275135
406,bartica,6.4,-58.6167,31.18,53,94,2.16,GY,1680275135
407,khovu-aksy,51.1333,93.6,-12.35,79,99,2.76,RU,1680275135
408,merauke,-8.4667,140.3333,26.55,82,60,3.48,ID,1680275136
409,nyrob,60.733,56.7202,2.95,80,100,4.48,RU,1680275136
410,griffith,41.5284,-87.4237,14.59,78,100,8.75,US,1680275136
411,rocha,-34.4833,-54.3333,19.94,76,95,9.1,UY,1680275136
412,borovoy,55.4333,86.0833,-8.4,67,75,4.0,RU,1680274912
413,aktas,49.7789,72.9608,-2.14,64,4,5.15,KZ,1680275136
414,fereydun kenar,36.6864,52.5225,12.12,87,100,2.06,IR,1680275136
415,egvekinot,66.3167,-179.1667,-23.53,100,100,0.88,RU,1680275136
416,ekimchan,53.0667,132.9667,-4.15,95,99,1.33,RU,1680275136
417,tubmanburg,6.8708,-10.8172,36.75,37,22,1.28,LR,1680275136
418,north augusta,33.5018,-81.9651,19.63,77,0,2.57,US,1680275137
419,broken hill,-31.95,141.4333,17.0,50,68,5.23,AU,1680274955
420,dhidhdhoo,6.8833,73.1,28.22,71,40,3.85,MV,1680275137
421,dobryatino,55.5055,41.3195,4.3,87,100,1.77,RU,1680275137
422,tautira,-17.7333,-149.15,27.11,75,99,2.76,PF,1680274876
423,wenchi,7.7392,-2.1046,33.73,38,100,2.51,GH,1680275137
424,alyangula,-13.8483,136.4192,26.86,81,63,2.89,AU,1680275137
425,qui nhon,13.7667,109.2333,24.97,89,98,0.68,VN,1680274905
426,teno,-34.8667,-71.1833,16.75,48,0,3.09,CL,1680275137
427,biak,-0.9131,122.8766,25.08,82,100,1.38,ID,1680275137
428,la carlota,10.4233,122.9208,27.0,73,99,3.41,PH,1680275137
429,san lawrenz,36.0553,14.204,18.67,79,19,5.21,MT,1680275137
430,bilibino,68.0546,166.4372,-10.56,96,100,1.82,RU,1680275138
431,severo-kurilsk,50.6789,156.125,-0.32,73,2,2.82,RU,1680275138
432,wasilla,61.5814,-149.4394,-0.44,93,100,2.06,US,1680274962
433,leh,34.1667,77.5833,-1.21,79,98,2.13,IN,1680275138
434,cumbal,0.9088,-77.7915,10.06,87,75,1.03,CO,1680275138
435,krasnoselkup,65.7,82.4667,-18.6,92,88,4.68,RU,1680275138
436,bilma,18.6853,12.9164,32.55,8,6,3.74,NE,1680275138
437,cacador,-26.7753,-51.015,27.1,44,0,2.3,BR,1680275033
438,ipanguacu,-5.4983,-36.855,33.43,42,99,1.84,BR,1680275138
439,tigil,57.8,158.6667,-0.69,80,100,5.62,RU,1680275138
440,opuwo,-18.0607,13.84,32.63,19,99,2.19,NA,1680275138
441,chicama,-7.8447,-79.1469,27.3,73,82,2.51,PE,1680275138
442,sao felix do xingu,-6.6447,-51.995,28.5,73,82,2.07,BR,1680275138
443,akyab,20.15,92.9,26.72,78,7,4.58,MM,1680275139
444,rosarito,32.3333,-117.0333,11.53,72,97,2.41,MX,1680275139
445,tianpeng,30.9866,103.9393,19.26,77,95,1.08,CN,1680275139
446,caravelas,-17.7125,-39.2481,30.8,52,15,4.11,BR,1680275089
447,pires do rio,-17.2997,-48.2794,27.6,49,8,1.83,BR,1680275139
448,necochea,-38.5473,-58.7368,13.77,55,100,12.02,AR,1680275139
449,samarai,-10.6167,150.6667,28.0,77,100,2.45,PG,1680275139
450,kurchum,48.5722,83.6542,-4.17,57,4,5.77,KZ,1680275139
451,saint-francois,46.4154,3.9054,13.69,54,20,9.26,FR,1680275139
452,erzin,36.9559,36.2,9.21,52,1,3.79,TR,1680275139
453,sao jose da coroa grande,-8.8978,-35.1478,28.71,60,30,3.52,BR,1680275140
454,taltal,-25.4,-70.4833,21.58,74,17,1.53,CL,1680275140
455,lompoc,34.6391,-120.4579,10.43,87,20,2.57,US,1680275140
456,marsa matruh,31.3525,27.2453,18.11,52,0,4.63,EG,1680275140
457,raudeberg,61.9875,5.1352,7.37,65,3,2.33,NO,1680275140
458,consuegra,39.4625,-3.608,20.35,36,100,9.24,ES,1680275140
459,arenapolis,-14.4503,-56.8461,31.48,53,12,1.47,BR,1680274937
460,chandler,33.3062,-111.8412,13.37,55,0,4.12,US,1680275141
461,san quintin,30.4833,-115.95,12.31,63,97,1.26,MX,1680275141
462,trincomalee,8.5711,81.2335,28.3,75,2,5.48,LK,1680275141
463,carballo,43.213,-8.691,17.46,69,100,4.86,ES,1680275141
464,senanga,-16.1167,23.2667,24.24,69,84,2.05,ZM,1680275141
465,caxito,-8.5785,13.6643,32.2,53,74,4.75,AO,1680275141
466,hobyo,5.3505,48.5268,28.93,71,7,4.42,SO,1680275141
467,portland,45.5234,-122.6762,8.12,79,100,4.63,US,1680275141
468,ekhabi,53.5102,142.9671,-4.88,97,62,1.34,RU,1680275141
469,rincon,32.296,-81.2354,23.98,53,75,3.09,US,1680275141
470,galesong,-5.3166,119.3661,24.01,83,84,2.12,ID,1680275141
471,mariental,-24.6333,17.9667,32.54,10,4,1.38,NA,1680275141
472,bamban,15.6747,120.3315,25.04,86,24,0.33,PH,1680275142
473,zabol,32.25,67.25,13.27,53,6,7.75,AF,1680275142
474,paamiut,61.994,-49.6678,-5.39,46,15,2.31,GL,1680274990
475,ushibuka,32.1906,130.0228,14.88,67,66,2.34,JP,1680275142
476,pauini,-7.7136,-66.9764,23.71,96,100,1.51,BR,1680275142
477,asau,46.4333,26.4,11.51,75,81,2.59,RO,1680275142
478,esna,25.2934,32.554,24.01,16,0,8.23,EG,1680275142
479,manzhouli,49.6,117.4333,9.84,30,57,4.25,CN,1680275142
480,mount isa,-20.7333,139.5,25.87,27,32,4.12,AU,1680275142
481,tabas,33.5959,56.9244,29.12,10,75,1.03,IR,1680275142
482,riyadh,24.6877,46.7219,29.08,16,3,8.78,SA,1680275008
483,atar,20.5169,-13.0499,37.08,3,0,11.35,MR,1680274858
484,visby,57.6409,18.296,1.12,93,100,8.23,SE,1680275142
485,sola,-13.8833,167.55,27.63,76,76,3.65,VU,1680275142
486,hokitika,-42.7167,170.9667,12.08,92,100,3.75,NZ,1680275142
487,dudinka,69.4058,86.1778,-20.77,93,96,6.81,RU,1680275142
488,zhuzhou,27.8333,113.15,19.07,78,12,1.72,CN,1680275142
489,det udom,14.906,105.0784,28.9,58,11,3.31,TH,1680275142
490,horadiz,39.4488,47.3353,4.43,79,100,3.07,AZ,1680275142
491,kifri,34.6959,44.9661,12.34,33,68,8.19,IQ,1680275142
492,chifeng,42.2683,118.9636,14.04,28,100,5.56,CN,1680275143
493,puerto penasco,31.3167,-113.5333,13.84,48,20,3.09,MX,1680275143
494,dasoguz,41.8363,59.9666,27.97,20,0,6.17,TM,1680275030
495,tigzirt,36.8886,4.1198,21.18,52,14,4.01,DZ,1680275143
496,chinsali,-10.5414,32.0816,20.92,91,100,1.88,ZM,1680275143
497,contai,21.7786,87.7536,24.03,74,100,5.12,IN,1680275143
498,west wendover,40.7391,-114.0733,3.56,48,75,2.06,US,1680275143
499,balezino,57.9796,53.0106,4.02,83,100,5.66,RU,1680275143
500,tocopilla,-22.092,-70.1979,23.5,79,92,2.49,CL,1680275144
501,ust-kan,50.9276,84.761,-12.45,93,84,1.68,RU,1680275144
502,ixtapa,20.7,-105.2,19.57,64,100,1.54,MX,1680275144
503,matehuala,23.65,-100.65,22.1,31,99,1.07,MX,1680274844
504,santa cruz,-17.8,-63.1667,31.03,66,75,6.17,BO,1680275144
505,waipawa,-41.4122,175.5153,11.68,86,99,3.04,NZ,1680275144
506,bandar-e lengeh,26.5579,54.8807,24.06,64,75,6.17,IR,1680275144
507,ippy,6.2679,21.2247,31.75,36,99,3.58,CF,1680275144
508,baturaja,-4.1333,104.1667,23.75,93,99,0.98,ID,1680275144
509,verkhnedneprovskiy,54.9813,33.3457,5.51,53,12,1.98,RU,1680275144
510,ciudad bolivar,8.1222,-63.5497,30.8,50,100,5.2,VE,1680275144
511,mikhaylovka,50.06,43.2379,3.21,78,100,7.76,RU,1680275144
512,santa lucia,27.9117,-15.5407,23.62,39,0,8.23,ES,1680275144
513,malanje,-9.5402,16.341,23.55,72,98,1.43,AO,1680275145
514,rawson,-43.3002,-65.1023,12.3,35,77,4.08,AR,1680274883
515,goderich,43.7501,-81.7165,4.39,93,100,6.69,CA,1680275145
516,alamosa,37.4695,-105.87,0.99,37,0,4.12,US,1680275145
517,ishinomaki,38.4167,141.3,10.24,77,0,4.81,JP,1680275145
518,hluti,-27.2167,31.6167,21.37,75,100,1.49,SZ,1680275145
519,oktyabrskoye,43.0645,44.7417,5.08,60,75,2.0,RU,1680275145
520,figeac,44.75,1.9167,12.09,85,76,5.83,FR,1680275145
521,kalat,29.0225,66.5916,12.67,42,3,3.45,PK,1680275145
522,loukhi,66.0764,33.0381,-1.65,88,100,6.32,RU,1680275145
523,shiyan,32.6475,110.7781,15.25,67,58,0.64,CN,1680275145
524,great falls,47.5002,-111.3008,1.34,80,0,6.17,US,1680274991
525,manama,26.2154,50.5832,27.1,44,0,4.63,BH,1680275145
526,havoysund,70.9963,24.6622,-0.87,86,100,15.4,NO,1680275146
527,santa cruz de tenerife,28.4682,-16.2546,30.4,24,0,5.66,ES,1680275146
528,santa maria do suacui,-18.1903,-42.4142,31.73,33,6,0.95,BR,1680275146
529,luwuk,-0.9516,122.7875,25.77,83,100,1.41,ID,1680275146
530,grevenbroich,51.091,6.5827,14.16,83,40,5.14,DE,1680275146
531,port-gentil,-0.7193,8.7815,30.98,70,40,3.6,GA,1680275146
532,quatre cocos,-20.2078,57.7625,28.06,83,10,4.7,MU,1680275146
533,akcaabat,41.0212,39.5715,3.93,93,75,3.09,TR,1680275146
534,haines junction,60.7522,-137.5108,-9.03,92,100,0.51,CA,1680275146
535,udachnyy,66.4167,112.4,-28.48,100,93,2.44,RU,1680275146
536,powell,40.1578,-83.0752,9.51,93,100,7.2,US,1680274900
537,gazojak,41.1875,61.4036,25.23,21,21,5.52,TM,1680275146
538,ugoofaaru,5.6667,73.0,28.25,73,32,3.42,MV,1680275146
539,san andres,12.5847,-81.7006,30.01,58,20,7.2,CO,1680275146
540,tadine,-21.55,167.8833,24.57,86,12,2.9,NC,1680275146
541,cairns,-16.9167,145.7667,26.15,96,40,1.03,AU,1680274893
542,obo,5.3998,26.4869,29.64,41,93,2.19,CF,1680275146
543,wakkanai,45.4094,141.6739,2.65,91,86,4.46,JP,1680275147
544,calatayud,41.3535,-1.6432,21.33,29,83,14.12,ES,1680275147
545,sterling,39.0062,-77.4286,11.75,75,100,4.63,US,1680275147
546,waraseoni,21.75,80.0333,25.8,45,16,4.87,IN,1680275147
547,koslan,63.4564,48.8989,0.65,98,100,2.23,RU,1680275147
